city,count,county,lat,lon,province,staID,staName,type
北京,1078,海淀区,39.9611,116.2878,北京,1007A,海淀万柳,B
唐山,1080,路北区,39.6334,118.1725,河北,1038A,物资局,B
秦皇岛,1074,海港区,39.9041,119.5251,河北,1046A,建设大厦,B
张家口,1080,桥西区,40.8336,114.8883,河北,1057A,人民公园,B
承德,1049,双桥区,40.9763,117.9392,河北,1063A,中国银行,B
廊坊,1080,广阳区,39.5269,116.7244,河北,1070A,北华航天学院,B
邢台,1073,信都区,37.0886,114.4704,河北,1077A,达活泉,B
太原,1080,晋源区,37.7124,112.469,山西,1084A,晋源,B
呼和浩特,1080,经济技术开发区,40.7866,111.5512,内蒙古,1096A,工大金川校区,B
大连,1080,金州区,39.0496,121.7811,辽宁,1117A,开发区,B
长春,1053,经济技术开发区,43.8447,125.3863,吉林,1126A,经开区环卫处,B
哈尔滨,1064,呼兰区,45.9855,126.595,黑龙江,1139A,呼兰师专,B
上海,1080,普陀区,31.238,121.4,上海,1141A,普陀,B
南京,1080,玄武区,32.0754,118.7997,江苏,1156A,玄武湖,B
苏州,1056,吴中区,31.2703,120.613,江苏,1164A,吴中区,B
南通,1080,港闸区,32.0417,120.81,江苏,1172A,紫琅学院,B
连云港,1079,海州区,34.5885,119.176,江苏,1173A,市环境监测站,B
无锡,1073,滨湖区,31.5031,120.242,江苏,1191A,漆塘,B
镇江,1080,丹徒区,32.1328,119.4303,江苏,1205A,丹徒区监测站,B
淮安,1080,淮阴区,33.6297,119.0186,江苏,1214A,淮阴区监测站,B
盐城,1080,亭湖区,33.4022,120.118,江苏,1215A,盐城电厂,B
宿迁,1065,宿城区,33.9528,118.293,江苏,1220A,宿迁学院,B
杭州,1080,滨江区,30.2111,120.2072,浙江,1223A,滨江,B
宁波,1080,海曙区,29.8674,121.524,浙江,1241A,市环境监测中心,B
温州,1080,龙湾区,27.9747,120.76,浙江,1244A,龙湾,B
台州,1042,路桥区,28.5773,121.377,浙江,1257A,路桥田洋王,B
舟山,1080,定海区,29.9944,122.19,浙江,1260A,临城新区,B
金华,1078,金东区,29.1028,119.6856,浙江,1263A,监测站,B
衢州,1050,柯城区,28.9398,118.8692,浙江,1264A,环保大楼,B
丽水,1080,莲都区,28.4231,119.879,浙江,1269A,余庄前,B
合肥,1080,蜀山区,31.7848,117.1959,安徽,1270A,明珠广场,B
青岛,1080,崂山区,36.0858,120.4581,山东,1313A,崂山区子站,B
郑州,1080,高新区,34.81325,113.5674,河南,1319A,供水公司,B
武汉,1074,江岸区,30.6189,114.282,湖北,1327A,汉口花桥,B
长沙,1080,长沙县,28.2325,113.0833,湖南,1335A,经开区环保局,B
佛山,1080,高明区,22.8678,112.8383,广东,1376A,高明孔堂,B
中山,1077,,22.5497,113.3881,广东,1380A,张溪,B
江门,1080,蓬江区,22.6058,113.1064,广东,1383A,北街,B
惠州,1080,惠城区,23.0822,114.4053,广东,1393A,下埔横江三路子站,B
南宁,1080,兴宁区,22.8225,108.3206,广西,1403A,市监测站,B
海口,1080,美兰区,20.0574,110.3232,海南,1410A,海南大学,B
贵阳,1080,花溪区,26.4365,106.6555,贵州,1443A,碧云窝,B
昆明,1077,五华区,25.0669,102.6742,云南,1454A,金鼎山,B
拉萨,1066,城关区,29.6541,91.1774,西藏,1459A,西藏大学,B
西安,1071,新城区,34.2713,108.954,陕西,1466A,市人民体育场,B
乌鲁木齐,1074,沙依巴克区,43.8303,87.5801,新疆,1490A,监测站,B
株洲,1080,天元区,27.8244,113.135,湖南,1515A,天台山庄,B
湘潭,1080,岳塘区,27.9153,113.0048,湖南,1562A,昭山,B
包头,1080,东河区,40.5546,110.0377,内蒙古,1590A,东河鸿龙湾,B
鄂尔多斯,1080,东胜区,39.8261,109.9486,内蒙古,1592A,巴音孟克林场办事处,B
营口,1080,西市区,40.6511,122.215,辽宁,1598A,镜湖西路,B
丹东,1080,元宝区,40.1461,124.3933,辽宁,1602A,元宝山,B
盘锦,1046,兴隆台区,41.1489,122.0303,辽宁,1604A,开发区,B
葫芦岛,1080,连山区,40.7677,120.8695,辽宁,1610A,东城区,B
泉州,1080,洛江区,24.9424,118.6663,福建,1613A,万安,B
德州,1080,德城区,37.4451,116.2991,山东,1624A,监理站,B
聊城,1080,东昌府区,36.4372,115.9848,山东,1625A,区政府,B
滨州,1080,滨城区,37.393,117.9776,山东,1630A,北中新校,B
淄博,1080,淄川区,36.6331,117.9592,山东,1634A,气象站,B
枣庄,1078,薛城区,34.7837,117.2852,山东,1638A,薛城环保局,B
烟台,1080,开发区,37.5639,121.2514,山东,1642A,开发区,B
济宁,1080,任城区,35.4042,116.5491,山东,1655A,电化厂,B
泰安,1080,泰山区,36.1937,117.1437,山东,1656A,监测站,B
日照,1080,东港区,35.4044,119.5587,山东,1661A,港务局,B
韶关,1080,浈江区,24.7733,113.5824,广东,1669A,市八中,B
湛江,1074,麻章区,21.2679,110.3316,广东,1684A,麻章区环保局,B
茂名,1080,茂南区,21.6828,110.8592,广东,1689A,高岭,B
梅州,1080,梅县区,24.2719,116.0797,广东,1691A,梅县新城,B
汕尾,1070,城区,22.7925,115.3622,广东,1695A,新城中学,B
河源,1080,源城区,23.7586,114.6944,广东,1697A,东埔,B
揭阳,1070,榕城区,23.5294,116.4151,广东,1711A,渔湖,B
菏泽,1075,牡丹区,35.2464,115.4208,山东,1718A,市气象局,B
阳泉,1080,城区,37.8392,113.5158,山西,1743A,大阳泉,B
鞍山,1080,立山区,41.1196,123.044,辽宁,1748A,深沟寺,B
抚顺,1080,望花区,41.8391,123.7086,辽宁,1760A,沈抚新城,B
本溪,1080,平山区,41.2864,123.7669,辽宁,1764A,东明,B
锦州,1080,凌河区,41.1119,121.1836,辽宁,1769A,百股街道,B
吉林,1079,丰满区,43.8306,126.555,吉林,1776A,江南公园,B
齐齐哈尔,1079,龙沙区,47.3227,123.9483,黑龙江,1781A,农牧车辆厂,B
牡丹江,1080,西安区,44.5782,129.6115,黑龙江,1785A,文化广场,B
大庆,1080,让胡路区,46.6215,124.9042,黑龙江,1793A,让胡路区,B
马鞍山,1080,花山区,31.7231,118.5228,安徽,1800A,慈湖,B
九江,1068,浔阳区,29.7295,115.9877,江西,1805A,西园,B
安阳,1080,开发区,36.0681,114.361,河南,1820A,银杏小区,B
开封,1045,城乡一体化示范区,34.7965,114.2885,河南,1826A,世纪星幼儿园,B
平顶山,1068,新华区,33.737,113.2919,河南,1833A,规划设计院,B
三门峡,1076,湖滨区,34.7752,111.1922,河南,1835A,市政府,B
宜昌,1080,伍家岗区,30.6465,111.3549,湖北,1841A,伍家岗,B
岳阳,1080,岳阳楼区,29.3575,113.1497,湖南,1849A,开发区,B
常德,1080,武陵区,28.9703,111.6975,湖南,1854A,市二中,B
张家界,1080,永定区,29.1217,110.5319,湖南,1858A,永定新区,B
桂林,1080,象山区,25.2178,110.2869,广西,1865A,八中,B
北海,1076,银海区,21.4086,109.1436,广西,1867A,海滩公园,B
柳州,1080,鱼峰区,24.3134,109.4958,广西,1875A,古亭山,B
宜宾,1080,翠屏区,28.7199,104.5742,四川,1886A,黄金嘴,B
攀枝花,1080,东区,26.571,101.6891,四川,1888A,弄弄坪,B
泸州,1080,江阳区,28.8833,105.4379,四川,1896A,市环监站,B
德阳,1065,旌阳区,31.1091,104.3553,四川,1904A,耐火材料厂,B
南充,1067,顺庆区,30.8388,106.1087,四川,1910A,市环境监测站,B
遵义,1080,汇川区,27.72,106.9178,贵州,1915A,干田坝,B
曲靖,1079,麒麟区,25.5035,103.7897,云南,1916A,环境监测站,B
延安,1080,宝塔区,36.6106,109.5056,陕西,1929A,百米大道,B
宝鸡,1080,渭滨区,34.3547,107.1431,陕西,1933A,监测站,B
渭南,1079,临渭区,34.4877,109.4974,陕西,1939A,日报社,B
石嘴山,1078,惠农区,39.1325,106.7099,宁夏,1950A,红果子镇惠新街,B
克拉玛依,1080,克拉玛依区,45.5893,84.8988,新疆,1952A,南林小区,B
巴音郭楞州,1080,库尔勒市,41.7538,86.1472,新疆,1956A,孔雀公园,B
信阳,1078,南湾风景管理区,32.1271,113.9956,河南,2064A,南湾水厂,B
周口,1080,川汇区,33.6128,114.6613,河南,2067A,市环境监测站,B
晋城,1080,城区,35.4936,112.8318,山西,2161A,白云商贸,B
朔州,1080,朔城区,39.3617,112.4575,山西,2167A,朔唯,B
晋中,1080,榆次区,37.6982,112.6991,山西,2174A,榆次区政府,B
忻州,1076,忻府区,38.4519,112.7383,山西,2181A,开发区,B
吕梁,1080,离石区,37.5136,111.1297,山西,2185A,自来水公司,B
乌海,1080,海勃湾区,39.6973,106.8174,内蒙古,2187A,市林业局,B
呼伦贝尔,1080,海拉尔区,49.2261,119.7594,内蒙古,2192A,区环保局,B
巴彦淖尔,1074,临河区,40.7372,107.37,内蒙古,2196A,市环保大楼,B
兴安盟,1080,乌兰浩特市,46.0656,122.0392,内蒙古,2200A,胜华新制药厂,B
锡林郭勒盟,1080,锡林浩特市,43.9311,116.0781,内蒙古,2203A,市政府,B
阿拉善盟,1079,阿拉善左旗,38.8516,105.724,内蒙古,2206A,环保局新楼,B
阜新,1080,细河区,42.0705,121.6673,辽宁,2209A,农业园区,B
辽阳,1080,宏伟区,41.1953,123.2,辽宁,2212A,宏伟区,B
铁岭,1080,银州区,42.2867,123.8486,辽宁,2218A,银州路东段,B
朝阳,1080,双塔区,41.5648,120.4176,辽宁,2222A,八里堡,B
四平,1080,铁西区,43.193,124.388,吉林,2226A,境园,B
辽源,1080,龙山区,42.8845,125.1358,吉林,2227A,环保局,B
通化,1080,东昌区,41.7325,125.9446,吉林,2230A,铁路,B
白山,1080,浑江区,41.9171,126.4219,吉林,2231A,喜丰,B
松原,1079,宁江区,45.1214,124.8006,吉林,2233A,江南,B
白城,1078,洮北区,45.6077,122.7911,吉林,2235A,洮北区环保局,B
延边州,1080,延吉市,42.8881,129.3964,吉林,2239A,朝阳川镇医院,B
鸡西,1075,鸡冠区,45.3039,130.9429,黑龙江,2243A,第一中学,B
鹤岗,1080,南山区,47.3086,130.2684,黑龙江,2245A,斯达机电,B
双鸭山,1080,尖山区,46.6211,131.1734,黑龙江,2249A,南小市,B
佳木斯,1080,郊区,46.8028,130.2751,黑龙江,2255A,佳纺,B
黑河,1080,爱辉区,50.2341,127.5144,黑龙江,2264A,环保局,B
绥化,1080,北林区,46.6528,126.964,黑龙江,2267A,党政办公中心,B
淮南,1080,谢家集区,32.5951,116.8569,安徽,2279A,谢家集区政府,B
淮北,1080,烈山区,33.9007,116.8091,安徽,2283A,烈山区政府,B
铜陵,1075,铜官区,30.9412,117.8177,安徽,2285A,市第四中学,B
安庆,1073,大观区,30.5119,117.0331,安徽,2292A,马山宾馆,B
黄山,1080,屯溪区,29.6963,118.2903,安徽,2295A,延安路89号,B
滁州,1080,南谯区,32.2786,118.3244,安徽,2299A,人大宾馆,B
阜阳,1080,颍州区,32.8929,115.8277,安徽,2301A,市监测站,B
六安,1080,裕安区,31.7643,116.4738,安徽,2308A,皖西学院,B
宣城,1080,宣州区,30.9427,118.7173,安徽,2318A,开发区子站,B
莆田,1080,荔城区,25.4325,119.0141,福建,2319A,荔城区仓后路,B
三明,1080,梅列区,26.2625,117.6211,福建,2324A,三钢,B
南平,1080,延平区,26.6489,118.1825,福建,2333A,南平铝业有限公司,B
龙岩,1080,新罗区,25.0661,117.0258,福建,2337A,闽西职业技术学院,B
宁德,1066,蕉城区,26.6612,119.5388,福建,2341A,宁德市监测站,B
景德镇,1080,昌江区,29.2617,117.1547,江西,2345A,台达陶瓷,B
萍乡,1079,安源区,27.6253,113.8493,江西,2349A,市政府车库,B
鹰潭,1080,月湖区,28.2642,117.0564,江西,2358A,新监测站,B
赣州,1080,章贡区,25.8481,114.9461,江西,2364A,气象台,B
吉安,1080,吉州区,27.0803,114.9754,江西,2367A,红声器材厂,B
宜春,1080,袁州区,27.7914,114.3703,江西,2374A,市气象局,B
抚州,1080,临川区,27.963,116.3565,江西,2378A,血防站,B
鹤壁,1080,淇滨区,35.7306,114.2878,河南,2387A,迎宾馆,B
新乡,1080,红旗区,35.303,113.883,河南,2391A,环保东院,B
濮阳,1077,华龙区,35.7754,115.0866,河南,2395A,油田物探公司,B
漯河,1075,源汇区,33.5698,114.0055,河南,2400A,漯河大学,B
南阳,1080,卧龙区,32.9735,112.5003,河南,2405A,汉画馆,B
商丘,1076,示范区,34.4285,115.6702,河南,2408A,环境监测站,B
驻马店,1066,开发区,33.015,114.0114,河南,2421A,市彩印厂,B
黄石,1073,西塞山区,30.2006,115.0817,湖北,2424A,陈家湾,B
十堰,1079,茅箭区,32.6494,110.78,湖北,2429A,滨河新村,B
襄阳,1075,襄城区,32.0197,112.155,湖北,2432A,襄城运动路,B
鄂州,1080,鄂城区,30.3994,114.8938,湖北,2436A,市政府,B
孝感,1080,孝南区,30.9285,113.9153,湖北,2443A,文化路,B
咸宁,1078,咸安区,29.8566,114.2936,湖北,2449A,咸安区政府,B
随州,1080,曾都区,31.7275,113.3583,湖北,2451A,市委党校,B
衡阳,1080,珠晖区,26.8956,112.6211,湖南,2458A,珠晖区环保局,B
邵阳,1076,大祥区,27.2317,111.4733,湖南,2463A,市一中,B
益阳,1079,赫山区,28.5819,112.3744,湖南,2471A,赫山环保分局,B
郴州,1080,苏仙区,25.7759,113.0348,湖南,2476A,市环保局,B
永州,1079,冷水滩区,26.4519,111.5989,湖南,2481A,冷水滩区环保局,B
怀化,1080,鹤城区,27.583,110.0394,湖南,2486A,市委党校,B
娄底,1080,娄星区,27.7044,111.9892,湖南,2491A,市政府,B
湘西州,1079,吉首市,28.2675,109.6958,湖南,2494A,吉首市计生局,B
梧州,1080,龙圩区,23.4189,111.247,广西,2497A,龙圩,B
防城港,1080,港口区,21.6158,108.3411,广西,2499A,沙万,B
钦州,1080,钦南区,21.7431,108.5989,广西,2504A,港区一小,B
贵港,1080,港北区,23.0948,109.6014,广西,2507A,贵城子站,B
百色,1076,右江区,23.8859,106.6538,广西,2513A,市中心血站,B
贺州,1076,八步区,24.4078,111.5608,广西,2515A,政协大楼,B
河池,1080,金城江区,24.6989,108.0983,广西,2518A,市疾控中心,B
崇左,1080,江州区,22.4136,107.3476,广西,2521A,市环保局江州分局,B
遂宁,1080,船山区,30.5232,105.5582,四川,2528A,市监测站,B
内江,1080,市中区,29.5822,105.0406,四川,2534A,内江日报社,B
乐山,1060,市中区,29.5844,103.7627,四川,2536A,牛耳桥,B
广安,1080,广安区,30.4576,106.6303,四川,2544A,市委,B
达州,1080,达川区,31.1986,107.5082,四川,2551A,达县机关宾馆,B
雅安,1025,雨城区,30.02,103.0475,四川,2554A,建安厂,B
资阳,1080,雁江区,30.1506,104.6356,四川,2562A,资阳中学,B
凉山州,1064,西昌市,27.8851,102.2685,四川,2574A,凉山州政府,B
六盘水,1043,水城县,26.5506,104.9544,贵州,2580A,双水,B
铜仁,999,碧江区,27.6944,109.1753,贵州,2586A,铜仁七中,B
黔西南州,1080,兴义市,25.0992,104.8811,贵州,2590A,坪东大道,B
黔南州,1080,都匀市,26.2403,107.5228,贵州,2593A,小围寨,B
保山,1068,隆阳区,25.1081,99.1678,云南,2594A,市环境监测站,B
昭通,1080,昭阳区,27.3361,103.7225,云南,2597A,环保局,B
丽江,1080,古城区,26.8802,100.2497,云南,2599A,丽江古城,B
普洱,1077,思茅区,22.8322,100.9817,云南,2602A,普洱第二中学,B
临沧,1080,临翔区,23.8822,100.0894,云南,2604A,市气象局,B
楚雄州,1080,楚雄市,25.0492,101.538,云南,2606A,市经济开发区,B
文山州,1074,文山市,23.3892,104.2319,云南,2611A,市便民服务中心,B
西双版纳州,1070,景洪市,22.0019,100.7939,云南,2612A,景洪市江南,B
大理州,1078,大理市,25.7054,100.1542,云南,2614A,大理市环境监测站,B
怒江州,1013,泸水市,25.8567,98.8601,云南,2618A,州监测站,B
昌都,1055,卡若区,31.1273,97.1806,西藏,2622A,昌都监测站,B
日喀则,1080,桑珠孜区,29.2718,88.8876,西藏,2626A,日喀则监测站,B
那曲,1080,色尼区,31.4846,92.0657,西藏,2628A,那曲监测站,B
林芝,1076,巴宜区,29.6616,94.3616,西藏,2633A,林芝人民医院,B
汉中,1080,汉台区,33.1138,107.0089,陕西,2636A,鑫源开发区,B
榆林,1080,榆阳区,38.2911,109.7456,陕西,2639A,世纪广场,B
安康,1080,汉滨区,32.6975,109.0072,陕西,2644A,汉滨区检察院,B
商洛,1077,商州区,33.8715,109.9154,陕西,2645A,监测站,B
白银,1080,白银区,36.5446,104.1724,甘肃,2647A,豫源饭店,B
天水,1073,麦积区,34.5538,105.8945,甘肃,2651A,文化馆,B
武威,1080,凉州区,37.9251,102.6201,甘肃,2652A,监测站,B
张掖,1080,甘州区,38.9524,100.4698,甘肃,2654A,监测站,B
平凉,1078,崆峒区,35.5307,106.7021,甘肃,2657A,博物馆,B
酒泉,1080,肃州区,39.7256,98.4989,甘肃,2659A,富康家世界子站,B
庆阳,1073,西峰区,35.7067,107.6364,甘肃,2662A,市环保局,B
定西,1080,安定区,35.5934,104.6194,甘肃,2664A,南峰招待所(原起重机厂),B
临夏州,1080,临夏市,35.5993,103.2069,甘肃,2667A,环保局,B
吴忠,1080,利通区,37.9648,106.1532,宁夏,2677A,教育园区,B
吐鲁番,1080,高昌区,42.9418,89.1904,新疆,2686A,市环保局,B
哈密,1080,伊州区,42.8328,93.4961,新疆,2689A,哈密师范学校,B
博尔塔拉州,1072,博乐市,44.8969,82.0806,新疆,2694A,市环保局,B
阿克苏地区,1062,阿克苏市,41.1694,80.292,新疆,2695A,电视台,B
克孜勒苏州,1080,阿图什市,39.7142,76.1454,新疆,2697A,市人民政府,B
喀什地区,1080,喀什市,39.4694,75.9755,新疆,2699A,吾办,B
伊犁州,1080,伊宁市,43.9404,81.2815,新疆,2703A,市环保局,B
石河子,1080,石河子市,44.2967,86.0497,新疆,2709A,艾青诗歌馆,B
五家渠,1068,五家渠市,44.1756,87.5475,新疆,2711A,农水大厦,B
广州,1080,天河区,23.1322,113.3221,广东,2846A,体育西,B
嘉兴,1078,南湖区,30.7525,120.7846,浙江,2872A,南湖区残联,B
黔东南州,1080,凯里市,26.5311,107.8908,贵州,2881A,凯里学院,B
玉溪,1080,红塔区,24.3389,102.5381,云南,2883A,文体中心(启用161222),B
陇南,1080,武都区,33.3826,104.9339,甘肃,2885A,滨江中学,B
沈阳,1080,沈北新区,41.9086,123.5953,辽宁,2900A,裕农路,B
湖州,1053,吴兴区,30.8596,120.1844,浙江,2907A,吴兴区站(启用160104),B
徐州,1080,鼓楼区,34.29,117.1814,江苏,3005A,鼓楼区政府(启用161026),B
荆门,1080,东宝区,31.0362,112.1849,湖北,3012A,西山林语,B
临汾,1072,尧都区,36.1014,111.505,山西,3018A,唐尧大酒店(启用161122),B
自贡,1080,贡井区,29.3427,104.72,四川,3027A,青杠林路(启用170114),B
乌兰察布,1080,集宁区,41.0385,113.1076,内蒙古,3034A,光明街小学(启用170221),B
红河州,1080,蒙自市,23.368,103.3758,云南,3038A,州图书馆(启用170306),B
福州,1080,马尾区,26.0936,119.5799,福建,3048A,九龙(启用170419),B
天津,1080,滨海新区,39.1495,117.3916,天津,3051A,西四道(启用170426),B
赤峰,1080,元宝山区,42.0353,119.2658,内蒙古,3058A,银河街(启用170524),B
甘孜州,1079,康定市,29.9972,101.9533,四川,3065A,州环保局(启用170614),B
安顺,1070,西秀区,26.2564,105.9439,贵州,3124A,金钟山(启用171013),B
眉山,1068,东坡区,30.0744,103.8578,四川,3137A,市委党校(启用180110),B
扬州,1076,广陵区,32.3942,119.4686,江苏,3164A,广陵建设局(启用180626),B
焦作,1080,山阳区,35.2071,113.2725,河南,3169A,太极体育中心(启用180720),B
迪庆州,1078,香格里拉市,27.8094,99.7136,云南,3180A,质量技术监督局(20180930启用),B
巴中,1064,巴州区,31.8545,106.7656,四川,3182A,丽阳花园(启用181029),B
衡水,1080,桃城区,37.7217,115.6683,河北,3188A,市城管局(20181124启用),B
阿里地区,1078,噶尔县,32.5028,80.0903,西藏,3192A,阿里地区藏医院(20181130启用),B
荆州,1078,开发区,30.3122,112.2747,湖北,3194A,管委会,B
新余,1080,渝水区,27.807,114.9149,江西,3206A,新钢沁园村(20190301启用),B
兰州,1080,榆中县,35.998,103.9611,甘肃,3242A,和平(新增200315),B
嘉峪关,1077,市区,39.7724,98.2643,甘肃,3248A,雄关区(新增191225),B
大同,1080,平城区,40.0597,113.3397,山西,3282A,大同市卫生学校(145),B
深圳,1080,福田区,22.559,114.0731,广东,3305A,莲花(新增191224),B
珠海,1080,金湾区,22.0569,113.3494,广东,3308A,金湾(新增191225),B
肇庆,1080,高要区,23.0166,112.4575,广东,3313A,高要湖西(新增191223),B
沧州,1068,运河区,38.3004,116.8136,河北,3324A,河北水利电力学院(新增191226),B
亳州,1068,谯城区,33.8034,115.7633,安徽,3332A,亳州学院(新增191231),B
池州,1080,贵池区,30.6243,117.5038,安徽,3334A,第十二中学(新增200413),B
许昌,1080,东城区,34.0442,113.8614,河南,3337A,许昌学院(145),B
洛阳,1080,伊滨区,34.6326,112.6005,河南,3340A,伊滨(145),B
成都,1080,金牛区,30.6931,104.0106,四川,3357A,金博路(新增191230),B
甘南州,1080,合作市,34.9617,102.8914,甘肃,3380A,甘肃民族师范学院(新增200422),B
黄冈,1079,黄州区,30.4445,114.9136,湖北,3398A,市林业局,B
上饶,1080,广丰区,28.4401,118.1953,江西,3413A,广丰区教体局(新增191231),B
常州,1080,金坛区,31.7245,119.5826,江苏,3430A,金坛城区(新增200331),B
泰州,1080,医药高新区,32.4322,119.9192,江苏,3435A,周山河街区(145),B
阳江,1080,阳东区,21.8749,112.0125,广东,3453A,阳东陶然(新增191228),B
清远,1080,清城区,23.7198,113.076,广东,3455A,清城东城(新增191230),B
石家庄,1078,鹿泉区,38.0906,114.289,河北,3456A,鹿泉一中(145),B
芜湖,1080,弋江区,31.2326,118.2746,安徽,3466A,扬子职业技术学院(145),B
伊春,1080,伊美区,47.6417,129.1368,黑龙江,3480A,美溪镇(新增200316),B
重庆,1080,黔江区,29.5368,108.7661,重庆,3483A,西山(新增200109),B
绵阳,1080,安州区,31.5343,104.5648,四川,3492A,安州区旅游局(新增191231),B
济南,1080,济阳区,36.9782,117.1673,山东,3494A,济阳区政府(145),B
威海,1080,临港区,37.3414,122.1379,山东,3505A,临港区管委会(新增200107),B
固原,1080,原州区,35.9959,106.2177,宁夏,3522A,原州区十五小(145),B
银川,1080,兴庆区,38.3856,106.5105,宁夏,3523A,滨河新区(新增200112),B
咸阳,1080,秦都区,34.4078,108.6396,陕西,3525A,奥体中心(新增200102),B
厦门,1074,同安区,24.7245,118.1493,福建,3528A,同安二实小(新增200318),B
漳州,1070,芗城区,24.5314,117.6296,福建,3530A,西洋坪路(新增200103),B
玉林,1080,玉州区,22.6831,110.1945,广西,3532A,玉林师范学院东校区(新增200120),B
来宾,1080,兴宾区,23.7297,109.1781,广西,3535A,兴宾区政府(新增191226),B
毕节,1080,七星关区,27.3533,105.3631,贵州,3537A,长征村(新增191230),B
三亚,1080,海棠区,18.3443,109.7348,海南,3540A,君悦子站(新增200108),B
儋州,1080,儋州市,19.5187,109.5567,海南,3542A,东坡学校子站(新增200426),B
恩施州,1080,恩施市,30.3772,109.5061,湖北,3549A,龙凤新区,B
长治,1080,潞城区,36.3489,113.235,山西,3570A,潞城四中(145),B
邯郸,1080,峰峰矿区,36.4229,114.2401,河北,3580A,峰峰临水派出所,B
保定,1079,满城区,38.9434,115.3228,河北,3581A,满城区生态环境分局,B
雄安新区,1080,容城县,39.0645,115.8665,河北,3585A,河北容城中学(145),B
和田地区,1080,和田市,37.0877,79.924,新疆,3614A,地区环保局,B
广元,1080,利州区,32.4166,105.8047,四川,3617A,经开区(并行145),B
汕头,1080,潮南区,23.2533,116.4069,广东,3624A,潮南子站(并行145),B
东莞,1080,市区,23.0457,113.7875,广东,3627A,东城主山(并行145),B
云浮,1080,云城区,22.9374,112.0336,广东,3628A,文笔(并行145),B
西宁,1080,城西区,36.6397,101.7413,青海,3630A,师大城西校区(并行145),B
东营,1080,东营区,37.4623,118.4978,山东,3646A,胜利站(并行145),B
中卫,1080,沙坡头区,37.5162,105.1698,宁夏,3650A,沙坡头区政府(并行145),B
铜川,1077,耀州区,34.8732,108.9543,陕西,3651A,旺旺集团(并行145),B
绍兴,1080,越城区,30.0764,120.6153,浙江,3658A,袍江中学(并行145),B
大兴安岭地区,1079,加格达奇区,50.4278,124.1164,黑龙江,3663A,红旗社区(启用191231),B
运城,1071,盐湖区,35.0547,111.0283,山西,3667A,水利职院(并行145),B
德宏州,1080,芒市,24.4368,98.5881,云南,3677A,芒市人民政府综合楼(启用200103),B
七台河,1058,新兴区,45.8222,130.8781,黑龙江,3684A,新建矿广场(启用200107),B
南昌,1078,青山湖区,28.7031,115.9721,江西,3690A,外国语学校(启用200108),B
宿州,1080,埇桥区,33.6252,116.9648,安徽,3701A,皖北煤电集团(启用200114),B
通辽,1080,科尔沁区,43.6189,122.2922,内蒙古,3708A,东方明珠社区(启用200221),B
蚌埠,1080,禹会区,32.9314,117.3092,安徽,3715A,蚌埠田家炳中学(启用200430),B
临沂,1080,罗庄区,35.03,118.392,山东,3860A,皇山花园小区(启用211119),B
潍坊,1080,寒亭区,36.7699,119.2041,山东,3861A,寒亭区实验一小,B
